City_ID,City,Lat,Lng,Max Temp,Humidity,Cloudiness,Wind Speed,Country,Date
0,'ayn al 'arab,36.8932,38.3651,40.35,10,0,3.05,SY,1689937516
1,bethel,41.3712,-73.414,22.55,89,100,1.45,US,1689937253
2,iranshahr,27.2025,60.6848,44.19,25,39,5.14,IR,1689937517
3,iqaluit,63.7506,-68.5145,4.85,100,75,1.54,CA,1689937220
4,happy valley-goose bay,53.3168,-60.3315,15.17,77,75,2.57,CA,1689937325
5,santiago de cao,-7.9589,-79.2392,21.07,83,100,2.57,PE,1689937344
6,port-aux-francais,-49.35,70.2167,0.61,68,91,15.81,TF,1689937248
7,mbanza kongo,-6.267,14.2401,31.59,31,10,1.6,AO,1689937517
8,bathurst,-33.4166,149.5806,1.28,95,5,1.53,AU,1689937517
9,cabo san lucas,22.8909,-109.9124,29.23,72,5,5.36,MX,1689937200
10,papatowai,-46.5619,169.4708,5.61,75,8,7.12,NZ,1689937288
11,qaqortoq,60.7167,-46.0333,4.68,98,100,5.45,GL,1689937252
12,papao,-17.75,-149.55,20.82,66,9,7.43,PF,1689937310
13,tiksi,71.6872,128.8694,6.07,67,33,2.08,RU,1689937283
14,kodiak,57.79,-152.4072,9.68,91,11,1.37,US,1689937292
15,coquimbo,-29.9533,-71.3436,12.85,87,100,0.51,CL,1689937398
16,badger,64.8,-147.5333,15.28,91,0,0.0,US,1689937253
17,waitangi,-43.9535,-176.5597,9.9,94,99,2.68,NZ,1689937248
18,sharifabad,35.4202,51.7926,37.37,13,22,7.61,IR,1689937518
19,san fernando,15.0286,120.6898,28.85,86,99,1.45,PH,1689937519
20,yinchuan,38.4681,106.2731,30.61,20,85,3.82,CN,1689937519
21,luanda,-8.8368,13.2343,24.0,69,75,1.03,AO,1689937058
22,lihue,21.9789,-159.3672,24.58,85,68,5.05,US,1689937281
23,vadso,70.0744,29.7487,10.09,76,75,8.75,NO,1689937519
24,las khorey,11.1595,48.1967,34.42,50,100,1.8,SO,1689937519
25,punta arenas,-53.15,-70.9167,-0.94,93,100,5.66,CL,1689937278
26,iskateley,67.6803,53.1512,19.45,79,99,7.36,RU,1689937296
27,adamstown,-25.066,-130.1015,21.59,79,100,11.78,PN,1689937112
28,nuevitas,21.5453,-77.2644,26.75,86,100,3.86,CU,1689937520
29,"laikit, laikit ii (dimembe)",1.4792,124.9735,27.47,70,40,3.09,ID,1689937298
30,ellsworth,44.5434,-68.4195,18.42,97,100,2.06,US,1689937447
31,tralee,52.2704,-9.7026,15.14,82,100,3.09,IE,1689937520
32,invercargill,-46.4,168.35,0.01,99,100,0.89,NZ,1689937256
33,port mathurin,-19.6833,63.4167,23.47,59,11,5.4,MU,1689937265
34,santa ana,33.7456,-117.8678,24.92,85,75,0.45,US,1689937356
35,atafu village,-8.5421,-172.5159,28.71,76,84,4.27,TK,1689937258
36,margaret river,-33.95,115.0667,14.16,64,3,5.2,AU,1689937252
37,ketchikan,55.3422,-131.6461,14.99,95,100,2.26,US,1689937349
38,dolbeau-mistassini,48.8763,-72.212,17.26,89,100,2.07,CA,1689937521
39,puerto ayora,-0.7393,-90.3518,24.75,94,43,2.68,EC,1689937282
40,udachny,66.4167,112.4,21.92,49,51,4.29,RU,1689937283
41,callao,-12.0667,-77.15,20.4,73,100,4.12,PE,1689937502
42,codrington,-38.2667,141.9667,7.25,93,26,3.79,AU,1689937295
43,wailua homesteads,22.0669,-159.378,24.24,85,74,0.89,US,1689937273
44,puerto aysen,-45.4,-72.7,5.7,99,100,1.91,CL,1689937292
45,ribeira grande,38.5167,-28.7,21.22,88,40,2.06,PT,1689937266
46,ugoofaaru,5.6667,73.0,27.48,79,100,7.21,MV,1689937522
47,ushuaia,-54.8,-68.3,-1.19,74,75,6.17,AR,1689937265
48,nantucket,41.2835,-70.0995,21.11,100,100,0.0,US,1689937226
49,santa marta,11.2408,-74.199,29.38,73,16,4.47,CO,1689937327
50,lebu,-37.6167,-73.65,11.54,91,76,5.84,CL,1689937317
51,hadibu,12.65,54.0333,28.11,65,100,11.39,YE,1689937330
52,port alfred,-33.5906,26.891,17.88,63,47,0.45,ZA,1689937304
53,arraial do cabo,-22.9661,-42.0278,18.92,88,40,2.57,BR,1689937203
54,la'ie,21.6477,-157.9253,25.98,82,63,2.24,US,1689937523
55,grytviken,-54.2811,-36.5092,-0.32,94,79,3.04,GS,1689937249
56,vilyuchinsk,52.9306,158.4028,16.15,88,98,3.4,RU,1689937322
57,stanley,54.868,-1.6985,17.1,86,40,1.54,GB,1689937288
58,okhotsk,59.3833,143.3,12.21,92,73,3.76,RU,1689937315
59,mount isa,-20.7333,139.5,19.87,34,0,4.63,AU,1689937294
60,puerto natales,-51.7236,-72.4875,-1.95,97,100,1.14,CL,1689937256
61,college,64.8569,-147.8028,15.32,91,0,0.0,US,1689937289
62,buulobarde,3.8538,45.5674,34.61,35,91,12.22,SO,1689937524
63,nuuk,64.1835,-51.7216,6.6,100,100,9.39,GL,1689937155
64,port lincoln,-34.7333,135.8667,9.77,76,17,2.31,AU,1689937257
65,bandar lampung,-5.4254,105.258,24.6,82,86,1.79,ID,1689937383
66,aykhal,66.0,111.5,19.86,64,74,3.75,RU,1689937525
67,gonabad,34.3529,58.6837,36.04,17,0,4.12,IR,1689937525
68,san antonio de pale,-1.4014,5.6325,22.94,74,100,4.67,GQ,1689937325
69,edinburgh of the seven seas,-37.0676,-12.3116,12.11,59,24,10.57,SH,1689937274
70,albany,42.6001,-73.9662,19.97,92,100,3.03,US,1689937247
71,tsiombe,-25.3,45.4833,19.25,58,100,6.78,MG,1689937287
72,sola,-13.8833,167.55,25.35,79,100,8.78,VU,1689937314
73,island harbour,50.724,-1.2758,21.07,59,59,1.79,GB,1689937322
74,ust-nera,64.5667,143.2,19.64,84,90,2.83,RU,1689937309
75,kalmunai,7.4167,81.8167,33.43,51,61,1.91,LK,1689937526
76,isangel,-19.55,169.2667,19.7,73,2,3.72,VU,1689937291
77,kudahuvadhoo,2.6708,72.8944,28.04,77,100,4.42,MV,1689937526
78,fale old settlement,-9.3852,-171.2468,28.56,75,62,3.19,TK,1689937275
79,ulladulla,-35.35,150.4667,10.81,56,59,6.44,AU,1689937310
80,acarau,-2.8856,-40.12,25.96,59,6,7.12,BR,1689937273
81,margate,51.3813,1.3862,20.17,54,32,4.02,GB,1689937301
82,karlskrona,56.1616,15.5866,18.25,55,25,6.92,SE,1689937527
83,blackmans bay,-43.0167,147.3167,7.51,84,60,2.13,AU,1689937275
84,koumra,8.9126,17.5539,32.63,50,24,1.54,TD,1689937527
85,ta`u,-14.2336,-169.5144,27.06,83,42,6.46,AS,1689937527
86,arica,-18.475,-70.3042,17.13,72,100,2.57,CL,1689937527
87,el porvenir,13.7617,-87.3458,24.63,84,30,2.73,HN,1689937527
88,east london,-33.0153,27.9116,13.52,71,20,4.12,ZA,1689937237
89,chui,-33.6971,-53.4616,14.33,95,38,4.08,UY,1689937292
90,moultrie,31.1799,-83.7891,26.01,100,0,1.54,US,1689937465
91,vorgashor,67.5833,63.95,24.84,53,62,4.35,RU,1689937284
92,constantia,44.1833,28.65,31.5,55,0,4.92,RO,1689937275
93,abepura,-2.6333,140.5833,26.45,74,20,1.03,ID,1689937528
94,rio grande,-32.035,-52.0986,15.06,96,68,5.78,BR,1689937528
95,isafjordur,66.0755,-23.124,10.02,81,0,2.57,IS,1689937265
96,bredasdorp,-34.5322,20.0403,14.34,49,57,3.08,ZA,1689937275
97,montepuez,-13.1256,38.9997,29.07,29,65,4.52,MZ,1689937529
98,nova vicosa,-17.8919,-39.3719,22.69,77,99,7.42,BR,1689937343
99,aasiaat,68.7098,-52.8699,4.17,99,100,6.27,GL,1689937290
100,fort mcmurray,56.7268,-111.381,14.73,94,0,2.57,CA,1689937529
101,bayji,34.9311,43.487,44.63,7,0,9.02,IQ,1689937529
102,enewetak,11.3474,162.3373,28.49,80,46,7.67,MH,1689937273
103,yeed,4.55,43.0333,32.22,37,93,11.57,SO,1689937530
104,anadyr,64.75,177.4833,14.28,87,40,1.0,RU,1689937250
105,susuman,62.7833,148.1667,22.64,51,21,4.18,RU,1689937280
106,hamilton,39.1834,-84.5333,19.84,91,75,0.0,US,1689937120
107,thompson,55.7435,-97.8558,13.09,88,40,1.03,CA,1689937254
108,kapa'a,22.0752,-159.319,24.99,85,91,0.89,US,1689937252
109,fisterra,42.9049,-9.2629,23.19,76,3,3.57,ES,1689937530
110,martinsville,36.6915,-79.8725,22.68,78,0,1.54,US,1689937452
111,lockwood,45.8191,-108.4149,19.24,73,20,2.57,US,1689937530
112,vishnyeva,54.7122,26.5225,18.8,53,52,3.72,BY,1689937531
113,west island,-12.1568,96.8225,25.99,73,75,9.77,CC,1689937254
114,jamestown,42.097,-79.2353,17.79,98,100,4.63,US,1689937209
115,vila franca do campo,37.7167,-25.4333,22.23,85,100,0.33,PT,1689937531
116,puerto carreno,6.189,-67.4859,23.61,93,99,1.31,CO,1689937531
117,virginia,37.5481,-77.4467,23.99,93,75,3.6,US,1689937270
118,egilsstadir,65.2653,-14.3948,11.95,71,0,2.06,IS,1689937254
119,ghadamis,30.1337,9.5007,41.01,8,0,2.86,LY,1689937319
120,la passe,45.5549,-0.8967,24.13,50,7,5.39,FR,1689937281
121,tromso,69.6496,18.957,15.01,72,40,4.63,NO,1689937532
122,kingston,17.997,-76.7936,25.69,84,76,0.45,JM,1689937138
123,suntar,62.1444,117.6319,20.81,80,84,3.33,RU,1689937532
124,remire-montjoly,4.9167,-52.2667,23.02,100,100,0.0,GF,1689937532
125,whitehorse,60.7161,-135.0538,16.01,72,75,1.54,CA,1689937259
126,camana,-16.6228,-72.7111,16.31,81,7,2.54,PE,1689937311
127,nyurba,63.2842,118.3319,18.64,75,96,1.37,RU,1689937533
128,campamento,14.55,-86.65,19.83,99,76,0.43,HN,1689937533
129,katsuura,35.1333,140.3,23.61,89,12,5.06,JP,1689937337
130,le port,-20.9373,55.2919,26.98,89,8,2.26,RE,1689937533
131,ranchettes,41.2186,-104.7903,11.83,95,100,2.57,US,1689937533
132,fortuna,40.5982,-124.1573,14.81,96,100,0.0,US,1689937273
133,bilibino,68.0546,166.4372,16.64,74,81,0.57,RU,1689937255
134,talara,-4.5772,-81.2719,21.1,81,44,5.98,PE,1689937534
135,kapuskasing,49.4169,-82.4331,13.0,94,100,2.57,CA,1689937252
136,bolgatanga,10.7856,-0.8514,32.88,50,26,3.81,GH,1689937534
137,ilulissat,69.2167,-51.1,12.01,66,75,5.66,GL,1689937266
138,waddan,29.1614,16.139,36.89,17,0,2.88,LY,1689937534
139,richards bay,-28.783,32.0377,17.43,61,99,2.05,ZA,1689937535
140,hammerfest,70.6634,23.6821,12.25,82,75,3.6,NO,1689937323
141,laguna,38.421,-121.4238,22.47,70,0,0.0,US,1689937341
142,hawaiian paradise park,19.5933,-154.9731,22.24,98,100,0.45,US,1689937259
143,nova sintra,14.8667,-24.7167,23.12,85,71,8.3,CV,1689937249
144,namdrik,5.5994,168.1028,28.14,82,100,6.54,MH,1689937535
145,saint-georges,12.0564,-61.7485,26.82,89,75,5.66,GD,1689937535
146,kasempa,-13.4584,25.8338,27.64,25,56,4.72,ZM,1689937535
147,luderitz,-26.6481,15.1594,18.87,42,2,1.17,NA,1689937354
148,tadmur,34.5608,38.2805,39.49,8,0,6.04,SY,1689937536
149,mount gambier,-37.8333,140.7667,7.26,92,19,1.6,AU,1689937216
150,kayangel,8.0823,134.7173,28.73,77,90,6.69,PW,1689937299
151,kuala belait,4.5833,114.1833,25.09,89,100,2.46,BN,1689937536
152,forbes,-33.3833,148.0167,6.62,83,5,2.9,AU,1689937536
153,soio,-6.1349,12.3689,25.35,64,39,3.6,AO,1689937536
154,laojunmiao,39.8333,97.7333,28.17,11,63,7.93,CN,1689937257
155,carnarvon,-24.8667,113.6333,18.94,42,100,6.76,AU,1689937284
156,kristinestad,62.2743,21.376,18.94,61,78,3.2,FI,1689937537
157,tofol,5.3248,163.0078,27.59,78,100,2.99,FM,1689937537
158,byron bay,-28.65,153.6167,12.62,62,56,0.58,AU,1689937537
159,chernyshevskiy,63.0128,112.4714,19.42,64,100,1.14,RU,1689937346
160,antalaha,-14.9003,50.2788,21.66,94,100,3.62,MG,1689937537
161,vernon,50.2581,-119.2691,20.74,49,69,3.09,CA,1689937538
162,midvagur,62.0511,-7.1939,14.46,77,100,2.57,FO,1689937278
163,calverton,39.0576,-76.9358,21.2,95,75,0.0,US,1689937538
164,yellowknife,62.456,-114.3525,18.29,77,100,3.09,CA,1689937252
165,ascension,30.2169,-90.9001,26.72,96,75,0.0,US,1689937538
166,svetlyy,54.675,20.1347,20.54,56,28,5.16,RU,1689937538
167,tamanrasset,22.785,5.5228,32.95,11,0,7.2,DZ,1689937539
168,birzebbuga,35.8258,14.5269,39.38,19,0,2.06,MT,1689937539
169,tindouf,27.6711,-8.1474,40.25,9,0,4.12,DZ,1689937539
170,kaa-khem,51.6833,94.7333,17.64,85,100,3.04,RU,1689937346
171,chaguanas,10.5167,-61.4167,27.87,86,20,0.0,TT,1689937540
172,saipan,15.1355,145.701,28.14,100,100,3.13,MP,1689937296
173,howard springs,-12.497,131.047,24.95,51,5,1.84,AU,1689937540
174,rabo de peixe,37.8,-25.5833,21.73,78,40,2.06,PT,1689937540
175,fort bragg,35.139,-79.006,23.91,85,20,2.57,US,1689937266
176,arteche,12.2645,125.4048,27.07,85,72,1.73,PH,1689937336
177,novodvinsk,64.4165,40.8122,17.85,94,100,3.13,RU,1689937541
178,am timan,11.0297,20.2827,32.46,48,54,2.6,TD,1689937363
179,hermanus,-34.4187,19.2345,15.45,46,73,2.41,ZA,1689937330
180,kailua-kona,19.6406,-155.9956,25.98,99,100,4.12,US,1689937541
181,paracuru,-3.41,-39.0306,26.17,58,5,7.58,BR,1689937541
182,naze,28.3667,129.4833,27.51,80,100,1.25,JP,1689937328
183,colombia,20.9881,-77.4297,24.39,99,98,2.8,CU,1689937210
184,longyearbyen,78.2186,15.6401,8.91,81,75,4.12,SJ,1689937293
185,georgetown,5.4112,100.3354,30.97,73,40,3.09,MY,1689937195
186,manggar,-2.8833,108.2667,27.3,78,86,6.32,ID,1689937542
187,grand falls-windsor,48.9332,-55.6649,20.84,94,100,2.47,CA,1689937445
188,palmer,42.1584,-72.3287,20.92,87,100,1.54,US,1689937542
189,kurtamysh,54.9103,64.4319,21.07,53,88,9.52,RU,1689937453
190,sao joao da barra,-21.6403,-41.0511,19.05,65,100,4.75,BR,1689937314
191,waingapu,-9.6567,120.2641,24.14,74,28,5.86,ID,1689937277
192,kill devil hills,36.0307,-75.676,25.01,89,100,0.0,US,1689937543
193,talnakh,69.4865,88.3972,22.34,62,99,4.28,RU,1689937274
194,colares,38.7992,-9.4469,24.81,61,40,7.2,PT,1689937052
195,lincoln city,44.9582,-124.0179,15.2,95,95,0.45,US,1689937543
196,aur,8.1499,171.1687,28.39,84,90,8.94,MH,1689937543
197,narasaraopet,16.25,80.0667,29.52,63,100,8.34,IN,1689937543
198,bozoum,6.3193,16.3799,26.63,75,85,1.47,CF,1689937543
199,klyuchi,52.2667,79.1667,32.65,25,83,5.44,RU,1689937277
200,fayroz koh,34.5195,65.2509,30.05,16,3,4.03,AF,1689937544
201,huancavelica,-12.7667,-74.9833,-2.48,83,3,1.12,PE,1689937544
202,minas de marcona,-15.2119,-75.1103,12.04,87,7,3.77,PE,1689937544
203,nea alikarnassos,35.3333,25.1667,36.63,36,0,1.54,GR,1689937544
204,lobujya,27.95,86.8167,7.22,82,46,2.2,NP,1689937544
205,bodden town,19.2833,-81.25,30.0,79,20,5.66,KY,1689937544
206,cuatro cienegas de carranza,26.9833,-102.0833,25.84,48,28,2.02,MX,1689937544
207,lamu,-2.2717,40.902,28.12,70,0,8.45,KE,1689937545
208,zemio,5.0314,25.1361,28.96,60,69,1.87,CF,1689937545
209,nemuro,43.3236,145.575,15.13,94,3,4.92,JP,1689937324
210,holualoa,19.6228,-155.9522,22.1,99,72,2.11,US,1689937304
211,vila velha,-20.3297,-40.2925,18.97,97,75,1.54,BR,1689937255
212,coahuayana de hidalgo,18.7,-103.6583,25.19,81,20,1.16,MX,1689937345
213,boden,65.8252,21.6886,15.0,72,100,3.03,SE,1689937545
214,buka,40.8108,69.1986,40.24,10,0,4.49,UZ,1689937330
215,verkhnedneprovskiy,54.9813,33.3457,19.74,45,62,3.36,RU,1689937546
216,kulhudhuffushi,6.6221,73.07,27.85,77,100,8.72,MV,1689937546
217,tazovsky,67.4667,78.7,24.89,38,82,5.03,RU,1689937322
218,trincomalee,8.5711,81.2335,33.16,51,90,5.17,LK,1689937546
219,dudinka,69.4058,86.1778,22.57,61,95,2.6,RU,1689937343
220,yanam,16.7333,82.2167,28.22,76,99,4.28,IN,1689937546
221,tura,25.5198,90.2201,26.72,93,100,1.55,IN,1689937284
222,morehead city,34.7229,-76.726,27.22,86,0,4.12,US,1689937546
223,antsiranana,-12.2787,49.2917,27.42,65,75,6.17,MG,1689937546
224,zuyevka,58.405,51.1335,17.5,80,99,4.92,RU,1689937547
225,edson,53.5835,-116.4356,12.08,93,0,2.06,CA,1689937547
226,rong'an,26.1247,119.1214,28.26,91,100,0.86,CN,1689937547
227,saint-philippe,-21.3585,55.7679,24.77,72,3,5.12,RE,1689937305
228,khash,28.2211,61.2158,38.35,7,42,10.02,IR,1689937547
229,exu,-7.5119,-39.7242,19.23,88,99,3.72,BR,1689937483
230,gisborne,-38.6533,178.0042,11.67,94,100,10.2,NZ,1689937547
231,patacamaya,-17.2333,-67.9167,3.34,45,0,1.71,BO,1689937548
232,los zacatones,22.95,-102.05,14.36,87,70,5.15,MX,1689937548
233,shimoda,34.6667,138.95,23.95,92,10,3.88,JP,1689937332
234,castillos,-34.1667,-53.8333,14.19,95,32,4.25,UY,1689937548
235,divrigi,39.371,38.1137,32.03,16,0,4.56,TR,1689937548
236,st. john's,47.5649,-52.7093,20.71,93,75,9.77,CA,1689937082
237,bamboo flat,11.7,92.7167,26.05,94,75,3.09,IN,1689937548
238,rio gallegos,-51.6226,-69.2181,0.03,100,100,9.26,AR,1689937549
239,estreito,-5.7833,-43.25,23.58,53,0,4.14,BR,1689937157
240,touros,-5.1989,-35.4608,26.1,66,8,6.69,BR,1689937355
241,lima,-12.0432,-77.0282,20.14,81,100,3.6,PE,1689937200
242,amga,60.8953,131.9608,14.15,94,100,2.11,RU,1689937364
243,tepelene,40.2958,20.0192,38.04,24,0,2.32,AL,1689937549
244,racaciuni,46.3333,26.9833,26.9,32,1,1.89,RO,1689937549
245,olonkinbyen,70.9221,-8.7187,5.1,81,100,1.57,SJ,1689937287
246,bontang,0.1333,117.5,25.38,90,99,3.35,ID,1689937550
247,uturoa,-16.7333,-151.4333,24.34,64,35,7.85,PF,1689937279
248,nago,26.5881,127.9761,30.25,82,99,3.49,JP,1689937529
249,ishigaki,24.3448,124.1572,30.07,74,75,4.12,JP,1689937550
250,singaraja,-8.112,115.0882,24.57,71,0,2.03,ID,1689937550
251,isla vista,34.4133,-119.861,20.56,80,0,2.06,US,1689937550
252,san juan de miraflores,-12.1629,-76.9635,19.54,81,57,2.53,PE,1689937550
253,awjilah,29.1081,21.2869,38.05,18,0,2.98,LY,1689937350
254,nampa,43.5407,-116.5635,22.92,52,0,2.06,US,1689937255
255,north platte,41.1239,-100.7654,15.06,98,75,0.89,US,1689937551
256,houma,29.5958,-90.7195,26.11,88,0,0.0,US,1689937551
257,beya,53.0533,90.9139,24.67,53,89,2.51,RU,1689937551
258,cucuta,7.8833,-72.5053,26.97,61,20,8.23,CO,1689937551
259,sao vicente,-23.9631,-46.3919,22.21,26,17,1.35,BR,1689937351
260,karratha,-20.7377,116.8463,23.13,39,10,2.16,AU,1689937276
261,new norfolk,-42.7826,147.0587,8.17,87,77,1.06,AU,1689937296
262,gracemere,-23.4333,150.45,19.95,68,100,1.03,AU,1689937551
263,lyangasovo,58.5176,49.4472,18.82,69,100,5.45,RU,1689937552
264,terbanggi besar,-4.8667,105.2333,25.75,80,96,2.93,ID,1689937552
265,ballycastle,55.2044,-6.243,15.01,74,95,3.71,GB,1689937552
266,chillan,-36.6066,-72.1034,12.18,94,100,3.6,CL,1689937552
267,mombetsu,44.3525,143.3525,18.59,91,7,1.8,JP,1689937552
268,nelson bay,-32.7167,152.15,14.5,77,32,5.81,AU,1689937552
269,kodinsk,58.6881,99.1844,29.75,28,3,2.43,RU,1689937278
270,xiva,41.3783,60.3639,36.99,12,0,3.98,UZ,1689937552
271,kurumkan,54.3,110.3,25.36,40,5,0.7,RU,1689937553
272,usogorsk,63.4106,48.6872,19.13,82,97,3.3,RU,1689937307
273,chonchi,-42.6128,-73.8092,10.56,95,100,5.09,CL,1689937255
274,selydove,48.1471,37.3003,28.34,43,14,5.7,UA,1689937553
275,puerto san jose,13.9256,-90.8244,25.34,75,79,1.87,GT,1689937553
276,sumbe,-11.2061,13.8437,24.0,69,100,2.06,AO,1689937553
277,freeport,40.6576,-73.5832,24.6,89,75,5.14,US,1689937553
278,el colomo,19.05,-104.25,26.1,84,35,1.11,MX,1689937554
279,sabang,5.8933,95.3214,29.22,73,97,10.36,ID,1689937406
280,khorramabad,33.4878,48.3558,39.79,9,0,5.14,IR,1689937554
281,barra dos coqueiros,-10.9089,-37.0386,26.01,69,40,7.72,BR,1689937554
282,al bawiti,28.3492,28.8659,38.47,11,0,4.02,EG,1689937554
283,utrik,11.2278,169.8474,28.29,79,44,9.83,MH,1689937285
284,hithadhoo,-0.6,73.0833,28.77,73,77,5.96,MV,1689937307
285,nguigmi,14.2495,13.1092,33.74,39,66,4.34,NE,1689937289
286,port saint john's,-31.6229,29.5448,18.69,54,100,8.78,ZA,1689937265
287,praia da vitoria,38.7333,-27.0667,22.14,88,40,1.77,PT,1689937555
288,tetyushi,54.9382,48.8366,23.77,42,64,6.87,RU,1689937555
289,rongelap,11.1635,166.8941,28.48,79,70,7.96,MH,1689937315
290,merced,37.1666,-120.7516,21.3,64,0,2.7,US,1689937280
291,lundazi,-12.2929,33.1782,25.99,30,3,5.21,ZM,1689937555
292,puerto baquerizo moreno,-0.9,-89.6,24.84,84,51,5.76,EC,1689937227
293,necochea,-38.5473,-58.7368,9.02,93,70,5.18,AR,1689937556
294,hoemul-li,41.4339,129.67,21.97,94,42,0.94,KP,1689937556
295,mincivan,39.0294,46.7185,34.15,41,5,4.03,AZ,1689937556
296,ramshir,30.8946,49.4092,48.92,3,0,4.38,IR,1689937556
297,howrah,22.5892,88.3103,29.0,84,100,3.6,IN,1689937324
298,vicuna,-30.0319,-70.7081,8.85,41,100,0.81,CL,1689937556
299,hasaki,35.7333,140.8333,25.73,83,1,4.45,JP,1689937519
300,port-cartier,50.0334,-66.8654,14.86,72,96,1.23,CA,1689937390
301,ta'izz,13.5,44.0,31.68,26,86,5.73,YE,1689937556
302,urengoy,65.9667,78.3667,28.2,36,89,4.7,RU,1689937557
303,gurupi,-11.7292,-49.0686,22.74,47,5,5.28,BR,1689937336
304,tubarjal,30.4999,38.216,38.49,11,0,3.87,SA,1689937557
305,chibougamau,49.9168,-74.3659,14.79,94,100,1.34,CA,1689937295
306,shakawe,-18.3667,21.85,27.71,22,49,4.39,BW,1689937557
307,port douglas,-16.4833,145.4667,21.5,82,94,3.19,AU,1689937299
308,quimili,-27.6333,-62.4167,22.91,46,90,9.05,AR,1689937557
309,labrador city,52.9463,-66.9114,12.95,88,20,1.03,CA,1689937229
310,olyokminsk,60.3736,120.4264,21.36,66,99,1.88,RU,1689937558
311,i-n-salah,27.1935,2.4607,43.15,7,0,12.08,DZ,1689937558
312,santa cruz,-17.8,-63.1667,18.7,88,0,4.63,BO,1689937558
313,urangan,-25.3,152.9,18.9,74,49,4.24,AU,1689937558
314,brisas de zicatela,15.8369,-97.0419,26.92,72,42,2.44,MX,1689937558
315,petropavlovsk-kamchatsky,53.0452,158.6483,15.33,100,75,2.0,RU,1689937255
316,piacabucu,-10.4056,-36.4344,23.8,84,19,6.98,BR,1689937558
317,hobyo,5.3505,48.5268,27.99,71,56,14.88,SO,1689937365
318,port elizabeth,-33.918,25.5701,15.05,58,0,5.66,ZA,1689937017
319,coos bay,43.3665,-124.2179,16.3,100,100,2.06,US,1689937559
320,haizhou,34.5817,119.1289,26.77,91,88,2.76,CN,1689937559
321,igrim,63.1906,64.4162,23.24,60,78,1.95,RU,1689937559
322,enugu-ezike,6.9825,7.457,26.76,76,100,3.94,NG,1689937559
323,mushie,-3.0167,16.9,38.42,23,40,0.36,CD,1689937559
324,miasskoye,55.2784,61.8905,22.49,37,89,6.86,RU,1689937559
325,salinas,36.6777,-121.6555,15.45,93,100,1.54,US,1689937483
326,avarua,-21.2078,-159.775,22.03,64,40,3.6,CK,1689937293
327,cooper's town,26.8667,-77.5167,29.51,73,18,5.64,BS,1689937560
328,nieuw amsterdam,5.8833,-55.0833,26.01,86,20,0.0,SR,1689937560
329,kabalo,-6.05,26.9167,35.53,17,12,3.23,CD,1689937560
330,al kharijah,25.4514,30.5464,42.4,9,0,2.86,EG,1689937560
331,choyr,46.3611,108.3611,20.08,56,21,5.46,MN,1689937560
332,la rinconada,37.4873,-5.9826,31.14,31,0,2.06,ES,1689937561
333,djambala,-2.5447,14.7533,34.35,26,13,0.92,CG,1689937561
334,porto murtinho,-21.6989,-57.8825,20.35,69,1,2.26,BR,1689937562
335,bikenibeu village,1.3673,173.1241,25.98,94,100,2.57,KI,1689937562
336,saguenay,48.4168,-71.0657,18.93,81,75,3.6,CA,1689937547
337,argo,37.6333,22.7333,33.21,25,0,4.44,GR,1689937296
338,keflavik,64.0049,-22.5624,13.95,76,75,8.23,IS,1689937352
339,tosya,41.0155,34.0401,26.45,31,0,3.67,TR,1689937563
340,sarangani,5.4033,125.4636,28.83,75,25,5.05,PH,1689937299
341,newman,37.3138,-121.0208,21.14,74,0,0.45,US,1689937212
342,la ronge,55.1001,-105.2842,15.12,88,75,2.06,CA,1689937334
343,dwarka,22.2394,68.9678,29.14,80,87,8.65,IN,1689937563
344,csakvar,47.3918,18.465,19.98,73,100,1.26,HU,1689937563
345,pisco,-13.7,-76.2167,14.03,88,25,2.57,PE,1689937255
346,bengkulu,-3.8004,102.2655,26.52,83,54,4.15,ID,1689937309
347,teluknaga,-6.0989,106.6381,30.1,66,20,4.12,ID,1689937564
348,paramonga,-10.6667,-77.8333,19.07,86,63,2.93,PE,1689937298
349,villa gesell,-37.2639,-56.973,13.36,98,12,6.45,AR,1689937564
350,bhopal,23.2667,77.4,34.13,55,40,4.63,IN,1689937564
351,situbondo,-7.7062,114.0098,25.37,67,7,3.23,ID,1689937564
352,kawalu,-7.3817,108.2082,21.66,91,76,1.83,ID,1689937565
353,aral,40.5156,81.2636,39.05,11,92,8.03,CN,1689937565
354,gangneung,37.7556,128.8961,23.31,91,63,2.16,KR,1689937565
355,kharian,32.8149,73.8636,35.43,52,99,4.64,PK,1689937565
356,fonte boa,-2.4959,-66.2662,22.51,88,69,0.48,BR,1689937566
357,beni mellal,32.3373,-6.3498,28.79,42,40,1.03,MA,1689937566
358,tetiiv,49.3767,29.6647,25.28,37,11,4.43,UA,1689937566
359,geraldton,-28.7667,114.6,12.23,82,5,3.09,AU,1689937281
360,arkhara,49.4212,130.0842,22.93,44,100,1.86,RU,1689937566
361,santa isabel,-23.3156,-46.2214,17.83,89,92,2.07,BR,1689937194
362,el jadid,33.2549,-8.506,23.75,67,14,8.5,MA,1689937270
363,fairfield,41.2668,-73.3162,22.76,82,40,2.57,US,1689937567
364,mili,6.0815,171.735,28.27,84,78,9.06,MH,1689937567
365,sterling,39.0062,-77.4286,20.5,92,75,2.06,US,1689937461
366,lardjem,35.748,1.5481,35.8,19,8,3.84,DZ,1689937567
367,hohhot,40.8106,111.6522,23.16,60,40,3.0,CN,1689937567
368,tot'ma,59.9747,42.7642,15.69,90,100,4.19,RU,1689937567
369,ciudad madero,22.2667,-97.8333,27.25,88,3,1.06,MX,1689937568
370,saint-pierre,-21.3393,55.4781,24.82,65,0,8.23,RE,1689937324
371,bria,6.5423,21.9863,29.71,58,27,1.99,CF,1689937568
372,erenhot,43.6475,111.9767,21.75,60,92,2.2,CN,1689937352
373,turan,16.0678,108.2208,30.99,74,20,4.63,VN,1689937568
374,sanctuary point,-35.1114,150.629,12.64,53,78,7.05,AU,1689937568
375,bridgewater,44.3835,-64.5155,18.95,99,48,1.34,CA,1689937569
376,trinidad,-14.8333,-64.9,17.99,94,0,0.0,BO,1689937569
377,san paolo,-23.5475,-46.6361,17.7,93,20,3.6,BR,1689937435
378,copalillo,18.0333,-99.1167,19.56,75,38,1.04,MX,1689937569
379,sungai penuh,-2.0833,101.3833,20.84,93,82,0.89,ID,1689937569
380,tobol,52.6844,62.5794,21.66,47,78,5.36,KZ,1689937570
381,ola,59.5833,151.2833,21.19,93,8,3.94,RU,1689937314
382,quellon,-43.1167,-73.6167,10.14,93,100,4.12,CL,1689937570
383,luziania,-16.2525,-47.9503,17.83,79,24,5.52,BR,1689937570
384,kondapalle,16.6167,80.5333,26.47,74,100,6.14,IN,1689937283
385,peniche,39.3558,-9.3811,23.49,82,44,3.69,PT,1689937233
386,akrehamn,59.2667,5.1833,15.0,72,75,4.63,NO,1689937364
387,murzuq,25.9155,13.9184,38.58,11,0,3.58,LY,1689937404
388,minot air force base,48.4209,-101.3391,14.99,91,40,3.09,US,1689937571
389,banda aceh,5.5577,95.3222,29.91,67,94,6.82,ID,1689937571
390,salekhard,66.53,66.6019,25.69,53,84,2.24,RU,1689937571
391,dano,11.15,-3.0667,32.5,49,14,3.67,BF,1689937571
392,broken hill,-31.95,141.4333,8.75,59,2,3.11,AU,1689937571
393,bubaque,11.2833,-15.8333,27.91,81,59,3.65,GW,1689937572
394,saldanha,-33.0117,17.9442,17.03,42,59,0.95,ZA,1689937102
395,tselina,46.5338,41.0328,31.28,30,7,3.52,RU,1689937572
396,dire dawa,9.5931,41.8661,31.46,36,99,4.16,ET,1689937572
397,jinghong,21.991,100.7341,26.06,95,95,1.11,CN,1689937384
398,zeya,53.75,127.2667,19.33,60,34,2.1,RU,1689937572
399,saint-paul,-21.0096,55.2707,27.05,89,8,0.45,RE,1689937572
400,al ghayzah,16.2079,52.176,28.8,74,96,5.46,YE,1689937573
401,borba,-4.3878,-59.5939,22.21,64,0,0.62,BR,1689937573
402,basco,20.4487,121.9702,29.33,78,24,6.4,PH,1689937573
403,kolpashevo,58.3131,82.9089,23.7,64,100,3.33,RU,1689937573
404,alghero,40.5589,8.3181,33.05,52,0,3.6,IT,1689937573
405,port blair,11.6667,92.75,26.02,94,75,3.09,IN,1689937309
406,trujillo,-8.116,-79.03,20.98,83,100,2.06,PE,1689937520
407,loushanguan,28.1375,106.82,22.82,95,90,0.66,CN,1689937574
408,fort st. john,56.2499,-120.8529,17.94,63,0,2.57,CA,1689937574
409,pudozh,61.8099,36.5345,12.23,96,100,6.96,RU,1689937574
410,yanai,33.9667,132.1167,28.0,90,1,1.44,JP,1689937574
411,gordonvale,-17.0936,145.7842,21.88,87,87,1.8,AU,1689937574
412,matoury,4.8483,-52.3317,22.98,100,100,0.0,GF,1689937575
413,qarazhal,48.0078,70.7903,32.6,16,49,8.42,KZ,1689937575
414,jackson,42.4165,-122.8345,21.93,66,0,0.0,US,1689937170
415,lyakhavichy,53.0388,26.2656,20.27,49,43,5.12,BY,1689937575
416,luanco,43.6152,-5.7934,23.34,73,29,2.95,ES,1689937575
417,bethanie,-26.4833,17.15,21.86,11,0,2.47,NA,1689937575
418,annotto bay,18.2717,-76.7652,26.63,88,77,3.21,JM,1689937576
419,devon,50.75,-3.75,19.83,60,46,5.7,GB,1689937400
420,yonan-up,37.9089,126.1611,24.11,79,20,1.51,KP,1689937576
421,ponta delgada,37.7333,-25.6667,22.4,78,40,2.06,PT,1689937237
422,nizhneudinsk,54.9076,99.0276,25.69,40,44,3.78,RU,1689937576
423,flying fish cove,-10.4217,105.6791,23.82,83,100,6.69,CX,1689937345
424,labuan,5.2767,115.2417,25.2,83,20,1.54,MY,1689937576
425,al jubayl,27.0112,49.6583,38.15,41,78,6.1,SA,1689937576
426,anamur,36.0751,32.8369,32.75,46,0,2.75,TR,1689937577
427,madera,37.1666,-119.8343,27.91,40,0,1.54,US,1689937577
428,lerwick,60.1545,-1.1494,13.0,74,76,3.09,GB,1689937298
429,daleville,31.3102,-85.713,25.67,98,0,1.54,US,1689936984
430,balabac,7.9868,117.0645,26.91,84,100,9.37,PH,1689937577
431,mil'kovo,55.6078,37.7956,22.11,47,77,4.01,RU,1689937577
432,achacachi,-16.05,-68.6833,3.76,46,0,0.54,BO,1689937577
433,healdsburg,38.6105,-122.8692,24.95,87,0,0.0,US,1689937323
434,prado,-17.3411,-39.2208,22.38,82,96,6.71,BR,1689937578
435,la plata,-34.9215,-57.9545,16.12,98,84,4.71,AR,1689937578
436,lompoc,34.6391,-120.4579,19.88,97,100,2.06,US,1689937080
437,nagqu,31.5,92.0,14.68,40,13,5.48,CN,1689937578
438,chikwawa,-16.0335,34.8009,28.37,39,73,4.85,MW,1689937256
439,macae,-22.3708,-41.7869,15.86,76,75,0.51,BR,1689937578
440,boca suno,-0.7167,-77.1333,20.41,99,93,0.7,EC,1689937579
441,domodossola,46.1165,8.2931,28.09,53,25,2.24,IT,1689937579
442,sinabang,2.4803,96.3801,28.02,76,61,3.03,ID,1689937300
443,nizhnesortymskiy,62.4397,71.7603,23.33,58,100,6.43,RU,1689937278
444,berbera,10.4396,45.0143,35.99,40,99,5.99,SO,1689937579
445,ciudad lazaro cardenas,17.9583,-102.2,25.9,88,24,1.63,MX,1689937293
446,horqueta,-23.3428,-57.0597,20.34,70,1,3.49,PY,1689937579
447,sevastopol,44.6,33.5333,27.78,48,23,1.34,UA,1689937580
448,astrakhan,46.3497,48.0408,32.93,41,0,6.0,RU,1689937580
449,belyy yar,53.6039,91.3903,23.94,69,0,5.0,RU,1689937339
450,kigonsera,-10.8,35.05,20.6,47,29,3.57,TZ,1689937580
451,hukumati azrah,34.1736,69.6457,28.2,27,3,2.54,AF,1689937580
452,westport,41.1415,-73.3579,24.02,90,40,2.57,US,1689937305
453,wanning,18.8003,110.3967,28.75,81,37,2.53,CN,1689937581
454,mugia,43.1041,-9.2179,23.28,75,0,3.42,ES,1689937355
455,arkhangel'sk,64.5401,40.5433,18.19,92,100,3.41,RU,1689937345
456,abadiania,-16.2042,-48.7069,14.51,81,16,4.55,BR,1689937581
457,mahina,-17.5065,-149.489,20.87,73,40,2.57,PF,1689937364
458,lodwar,3.1191,35.5973,34.28,29,85,5.3,KE,1689937336
459,kepno,51.2784,17.9891,24.91,28,72,3.25,PL,1689937477
460,rocha,-34.4833,-54.3333,14.05,95,38,5.28,UY,1689937582
461,carutapera,-1.195,-46.02,24.82,90,32,2.14,BR,1689937314
462,san rafael del yuma,18.4299,-68.6739,26.76,84,43,2.43,DO,1689937582
463,okha,53.5739,142.9478,11.98,98,76,5.12,RU,1689937582
464,shiqian,27.5225,108.2281,28.13,84,83,0.83,CN,1689937582
465,ribeira brava,32.65,-17.0667,25.95,67,2,0.89,PT,1689937321
466,al jawf,29.5,38.75,39.33,9,0,3.18,SA,1689937582
467,mountain home,43.133,-115.6912,22.3,40,0,3.09,US,1689937587
468,posto fiscal rolim de moura,-13.0833,-62.2667,18.81,73,0,0.19,BR,1689937588
469,angaur state,6.906,134.13,28.48,80,88,5.77,PW,1689937588
470,akureyri,65.6835,-18.0878,8.96,93,75,2.57,IS,1689937588
471,longonjo,-12.9067,15.2533,28.81,19,92,2.09,AO,1689937514
472,dalbandin,28.8947,64.4101,42.24,12,56,5.44,PK,1689937588
473,damasak,13.0977,12.4952,31.49,46,96,5.2,NG,1689937588
474,mala,-12.6581,-76.6308,18.56,78,67,0.74,PE,1689937589
475,fortaleza,-3.7227,-38.5247,25.68,65,0,7.2,BR,1689937319
476,bayganin,48.6947,55.8742,30.39,24,44,4.69,KZ,1689937589
477,gao,16.6362,1.637,36.8,33,99,5.64,ML,1689937589
478,villa huidobro,-34.8383,-64.5869,8.32,84,65,0.99,AR,1689937589
479,sao martinho,39.5144,-9.1311,25.42,83,59,3.13,PT,1689937589
480,deqen,29.9618,90.7188,20.03,32,82,1.81,CN,1689937520
481,karagandy,49.8019,73.1021,26.97,26,98,7.32,KZ,1689937590
482,taroa,8.7058,171.2275,28.34,83,74,9.97,MH,1689937590
483,afaahiti,-17.75,-149.2833,19.93,65,13,7.02,PF,1689937305
484,orebro,59.2741,15.2066,19.77,72,40,5.14,SE,1689937590
485,menongue,-14.6585,17.691,30.86,15,21,2.05,AO,1689937590
486,biloela,-24.4167,150.5,18.64,47,97,1.33,AU,1689937590
487,nishinoomote,30.7333,131.0,27.59,79,100,0.94,JP,1689937591
488,port augusta,-32.5,137.7667,8.85,63,3,1.85,AU,1689937358
489,hiawatha,42.0358,-91.6821,15.62,92,0,3.6,US,1689937405
490,hilton head island,32.2163,-80.7526,28.32,85,0,6.17,US,1689937591
491,micheweni,-4.9667,39.8333,27.59,65,1,7.12,TZ,1689937591
492,shingu,33.7333,135.9833,23.93,91,6,1.09,JP,1689937342
493,isanlu-itedoijowa,8.2667,5.8333,25.37,83,100,2.22,NG,1689937591
494,flin flon,54.7682,-101.865,15.36,72,67,2.42,CA,1689937592
495,tolanaro,-25.0319,46.9987,21.04,64,75,5.14,MG,1689937275
496,santana,-0.0583,-51.1817,24.1,100,20,2.06,BR,1689936996
497,haiku-pauwela,20.9219,-156.3051,23.43,84,0,3.58,US,1689937257
498,lionel town,17.8101,-77.2406,27.04,79,67,5.21,JM,1689937592
499,arecibo,18.4724,-66.7157,28.48,89,23,2.77,PR,1689937592
500,al quwayrah,29.8004,35.3116,36.0,16,0,5.23,JO,1689937592
501,mukalla,14.5425,49.1242,41.59,29,69,5.01,YE,1689937250
502,coronel dorrego,-38.7187,-61.2873,10.0,81,94,6.4,AR,1689937593
503,auki,-8.7676,160.7034,25.35,88,100,1.7,SB,1689937593
504,machico,32.7,-16.7667,26.51,65,40,7.72,PT,1689937593
505,bechar,31.6167,-2.2167,39.18,8,20,4.12,DZ,1689937593
506,yancheng,33.3856,120.1253,26.99,91,97,2.81,CN,1689937593
507,morondava,-20.2833,44.2833,27.42,57,0,6.15,MG,1689937350
508,sitka,57.0531,-135.33,15.94,82,100,1.54,US,1689937593
509,birao,10.2849,22.7882,31.83,54,95,1.16,CF,1689937356
510,colonia,50.9333,6.95,22.81,55,40,3.6,DE,1689937265
511,nouadhibou,20.931,-17.0347,23.99,73,8,10.8,MR,1689937332
512,jutai,-5.1833,-68.9,20.25,85,51,0.95,BR,1689937594
513,novoishimskiy,53.1981,66.7694,21.89,49,66,6.72,KZ,1689937594
514,guerrero negro,27.9769,-114.0611,19.02,86,96,4.07,MX,1689937594
515,conde,-7.2597,-34.9075,24.7,78,20,4.12,BR,1689937440
516,whangarei,-35.7317,174.3239,10.7,90,100,4.3,NZ,1689937594
517,bonab,37.3404,46.0561,36.25,23,20,2.06,IR,1689937594
518,azna,33.6095,48.9307,38.54,7,3,7.15,IR,1689937595
519,muntok,-2.0667,105.1833,27.48,76,63,4.04,ID,1689937595
520,qaisumah,28.3112,46.1273,45.98,6,0,5.14,SA,1689937349
521,ocher,57.8904,54.7202,20.3,62,75,5.21,RU,1689937595
522,marsa alam,25.0757,34.8918,35.7,42,3,7.26,EG,1689937595
523,polyarnyy,69.1989,33.4478,9.88,76,98,8.82,RU,1689937299
524,lospalos,-8.5186,127.0025,20.62,79,60,3.13,TL,1689937595
525,venustiano carranza,19.43,-99.0992,17.3,65,75,3.58,MX,1689937596
526,songling,31.1933,120.7176,28.33,86,100,2.51,CN,1689937596
527,las animas,-39.8087,-73.2182,12.08,95,100,3.44,CL,1689937596
528,san julian,21.0167,-102.1667,12.54,90,55,1.2,MX,1689937596
529,catia la mar,10.6038,-67.0303,27.5,73,40,3.09,VE,1689937596
530,laranjeiras do sul,-25.4078,-52.4161,12.2,93,8,1.96,BR,1689937596
531,brazzaville,-4.2658,15.2832,26.17,69,58,2.57,CG,1689937596
532,turuntayevo,52.2,107.6167,23.05,48,98,2.29,RU,1689937341
533,sogndal,61.2283,7.1003,17.21,67,100,1.03,NO,1689937597
534,canutama,-6.5339,-64.3831,21.29,67,74,0.58,BR,1689937597
535,sisimiut,66.9395,-53.6735,5.83,96,100,3.89,GL,1689937303
536,muisne,0.6,-80.0333,25.47,89,99,4.77,EC,1689937597
537,deniliquin,-35.5333,144.9667,6.24,72,3,2.66,AU,1689937597
538,raduzhny,62.0961,77.475,19.32,82,100,2.52,RU,1689937597
539,aleksandrov gay,50.147,48.5704,28.64,28,100,2.62,RU,1689937597
540,san patricio,28.017,-97.5169,27.7,96,1,2.13,US,1689937287
541,mishkovo-pohorilove,46.9995,32.118,28.98,33,3,4.7,UA,1689937598
542,aripuana,-9.1667,-60.6333,18.96,62,1,1.11,BR,1689937598
543,noumea,-22.2763,166.4572,22.22,99,88,2.97,NC,1689937521
544,san mariano,7.5,126.0,23.93,94,100,1.67,PH,1689937598
545,yemva,62.59,50.8594,18.33,87,93,2.97,RU,1689937598
546,tosontsengel,48.7567,98.2839,14.88,82,100,2.73,MN,1689937598
547,bukoba,-1.3317,31.8122,26.99,50,0,2.57,TZ,1689937598
548,taiyuan,37.8694,112.5603,27.92,54,20,7.0,CN,1689937599
549,sapatgram,26.3334,90.109,33.57,65,48,2.63,IN,1689937599
550,pula,44.8683,13.8481,32.31,43,0,3.09,HR,1689937599
551,macapa,0.0389,-51.0664,23.99,94,0,3.6,BR,1689937465
552,pacific grove,36.6177,-121.9166,13.82,94,100,0.89,US,1689937253
553,pul-e 'alam,33.9953,69.0227,34.53,14,0,4.15,AF,1689937599
554,kumla,59.1277,15.1434,19.63,72,40,5.14,SE,1689937599
555,severo-yeniseyskiy,60.3725,93.0408,26.7,31,88,3.38,RU,1689937310
556,sakaiminato,35.55,133.2333,26.96,89,20,6.17,JP,1689937599
557,kirkwall,58.9848,-2.9587,12.03,87,75,4.63,GB,1689937600
558,qarauyl,48.9451,79.255,33.21,16,78,3.4,KZ,1689937600
559,melekeok village,7.4957,134.6367,28.31,83,75,3.09,PW,1689937600
560,qinzhou,21.95,108.6167,29.55,78,62,2.44,CN,1689937600
561,limon,10.0,-83.0333,25.03,85,97,2.3,CR,1689937600
562,yashkul',46.1711,45.3435,32.41,31,81,1.12,RU,1689937601
563,suances,43.4334,-4.0434,22.91,76,40,1.54,ES,1689937601
564,kismayo,-0.3582,42.5454,27.98,69,35,9.8,SO,1689937316
565,kainantu,-6.2887,145.8655,16.31,96,79,0.74,PG,1689937601
566,taro,-8.3862,115.28,22.0,86,0,0.58,ID,1689937601
567,lashio,22.9333,97.75,26.11,89,88,0.51,MM,1689937606
